{"university": [{"name": "\u53f0\u79d1\u5927 \u6771\u4eac\u5de5\u696d\u5927\u5b78\u5de5\u7cfb\u81fa\u7063\u4ea4\u6d41\u4e2d\u5fc3", "a": "https://www.google.com/maps/place/%E5%8F%B0%E7%A7%91%E5%A4%A7+%E6%9D%B1%E4%BA%AC%E5%B7%A5%E6%A5%AD%E5%A4%A7%E5%AD%B8%E5%B7%A5%E7%B3%BB%E8%87%BA%E7%81%A3%E4%BA%A4%E6%B5%81%E4%B8%AD%E5%BF%83/data=!4m7!3m6!1s0x3442abc4155d8d7b:0x3ae2b1aed7be6530!8m2!3d25.0131196!4d121.540183!16s%2Fg%2F11tf3pc2pp!19sChIJe41dFcSrQjQRMGW-166x4jo?authuser=0&hl=zh-TW&rclk=1", "keyword": "university", "category": "\u5927\u5b78", "lat": 25.0131196, "lon": 121.540183}, {"name": "\u96fb\u529b\u96fb\u5b50\u4e2d\u5fc3", "a": "https://www.google.com/maps/place/%E9%9B%BB%E5%8A%9B%E9%9B%BB%E5%AD%90%E4%B8%AD%E5%BF%83/data=!4m7!3m6!1s0x3442aa21a92e392f:0xd68e060f51d3e413!8m2!3d25.0131848!4d121.540321!16s%2Fg%2F11bbt6n5_c!19sChIJLzkuqSGqQjQRE-TTUQ8GjtY?authuser=0&hl=zh-TW&rclk=1", "keyword": "university", "category": "\u5927\u5b78", "lat": 25.0131848, "lon": 121.540321}, {"name": "\u53f0\u79d1\u5927\u3001\u53f0\u5927\u3001\u53f0\u5e2b\u5927\u4e09\u6821\u806f\u76df\u63a5\u99c1\u8eca", "a": "https://www.google.com/maps/place/%E5%8F%B0%E7%A7%91%E5%A4%A7%E3%80%81%E5%8F%B0%E5%A4%A7%E3%80%81%E5%8F%B0%E5%B8%AB%E5%A4%A7%E4%B8%89%E6%A0%A1%E8%81%AF%E7%9B%9F%E6%8E%A5%E9%A7%81%E8%BB%8A/data=!4m7!3m6!1s0x3442abc33b77959d:0x834c684e0da65702!8m2!3d25.0126313!4d121.5399694!16s%2Fg%2F11tdfnl1fj!19sChIJnZV3O8OrQjQRAlemDU5oTIM?authuser=0&hl=zh-TW&rclk=1", "keyword": "university", "category": "\u5927\u5b78", "lat": 25.0126313, "lon": 121.5399694}, {"name": "\u6559\u5b78\u8cc7\u6e90\u4e2d\u5fc3", "a": "https://www.google.com/maps/place/%E6%95%99%E5%AD%B8%E8%B3%87%E6%BA%90%E4%B8%AD%E5%BF%83/data=!4m7!3m6!1s0x3442aa21aecec7d5:0x30b0f8a68d2b29cd!8m2!3d25.0131848!4d121.540321!16s%2Fg%2F11bbt3b3kl!19sChIJ1cfOriGqQjQRzSkrjab4sDA?authuser=0&hl=zh-TW&rclk=1", "keyword": "university", "category": "\u5927\u5b78", "lat": 25.0131848, "lon": 121.540321}, {"name": "\u5149\u6a5f\u96fb\u4e2d\u5fc3", "a": "https://www.google.com/maps/place/%E5%85%89%E6%A9%9F%E9%9B%BB%E4%B8%AD%E5%BF%83/data=!4m7!3m6!1s0x3442aa21a921c345:0xf571b8bb99f28668!8m2!3d25.0131848!4d121.540321!16s%2Fg%2F1q648b46y!19sChIJRcMhqSGqQjQRaIbymbu4cfU?authuser=0&hl=zh-TW&rclk=1", "keyword": "university", "category": "\u5927\u5b78", "lat": 25.0131848, "lon": 121.540321}, {"name": "\u570b\u7acb\u81fa\u7063\u79d1\u6280\u5927\u5b78", "a": "https://www.google.com/maps/place/%E5%9C%8B%E7%AB%8B%E8%87%BA%E7%81%A3%E7%A7%91%E6%8A%80%E5%A4%A7%E5%AD%B8/data=!4m7!3m6!1s0x3442aa2176c4c0ad:0x90db5e44ee29f455!8m2!3d25.0132583!4d121.5405609!16s%2Fm%2F026_k83!19sChIJrcDEdiGqQjQRVfQp7kRe25A?authuser=0&hl=zh-TW&rclk=1", "keyword": "university", "category": "\u79d1\u6280\u5927\u5b78", "lat": 25.0132583, "lon": 121.5405609}, {"name": "\u9ad8\u5206\u5b50\u52a0\u5de5\u5be6\u9a57\u5ba4", "a": "https://www.google.com/maps/place/%E9%AB%98%E5%88%86%E5%AD%90%E5%8A%A0%E5%B7%A5%E5%AF%A6%E9%A9%97%E5%AE%A4/data=!4m7!3m6!1s0x3442abc1bc5bc5e7:0x5a7b5eee5cc591bc!8m2!3d25.0130761!4d121.5421138!16s%2Fg%2F11tc2s2r2z!19sChIJ58VbvMGrQjQRvJHFXO5ee1o?authuser=0&hl=zh-TW&rclk=1", "keyword": "university", "category": "\u5927\u5b78", "lat": 25.0130761, "lon": 121.5421138}, {"name": "\u5149\u7e96\u7db2\u8def\u5be6\u9a57\u5ba4", "a": "https://www.google.com/maps/place/%E5%85%89%E7%BA%96%E7%B6%B2%E8%B7%AF%E5%AF%A6%E9%A9%97%E5%AE%A4/data=!4m7!3m6!1s0x3442ab6e1fe4b7eb:0x3c7c159db92473de!8m2!3d25.0119614!4d121.5414386!16s%2Fg%2F11s8848j9y!19sChIJ67fkH26rQjQR3nMkuZ0VfDw?authuser=0&hl=zh-TW&rclk=1", "keyword": "university", "category": "\u5927\u5b78", "lat": 25.0119614, "lon": 121.5414386}, {"name": "\u667a\u6167\u578b\u6a5f\u5668\u4eba\u7814\u7a76\u4e2d\u5fc3", "a": "https://www.google.com/maps/place/%E6%99%BA%E6%85%A7%E5%9E%8B%E6%A9%9F%E5%99%A8%E4%BA%BA%E7%A0%94%E7%A9%B6%E4%B8%AD%E5%BF%83/data=!4m7!3m6!1s0x3442abe82d827635:0xca852c60b21173e1!8m2!3d25.0130354!4d121.5401454!16s%2Fg%2F11sb12j7ym!19sChIJNXaCLeirQjQR4XMRsmAshco?authuser=0&hl=zh-TW&rclk=1", "keyword": "university", "category": "\u5927\u5b78", "lat": 25.0130354, "lon": 121.5401454}, {"name": "\u53f0\u79d1\u5927 \u5b78\u4eba\u4e09\u820d", "a": "https://www.google.com/maps/place/%E5%8F%B0%E7%A7%91%E5%A4%A7+%E5%AD%B8%E4%BA%BA%E4%B8%89%E8%88%8D/data=!4m7!3m6!1s0x3442aba7d1b7533b:0x86fa83d2f3c6400c!8m2!3d25.011643!4d121.5418161!16s%2Fg%2F11tdbcvlmd!19sChIJO1O30aerQjQRDEDG89KD-oY?authuser=0&hl=zh-TW&rclk=1", "keyword": "university", "category": "\u5927\u5b78", "lat": 25.011643, "lon": 121.5418161}, {"name": "\u53f0\u79d1\u5927 \u570b\u969b\u6703\u9928\u4e00\u9928", "a": "https://www.google.com/maps/place/%E5%8F%B0%E7%A7%91%E5%A4%A7+%E5%9C%8B%E9%9A%9B%E6%9C%83%E9%A4%A8%E4%B8%80%E9%A4%A8/data=!4m7!3m6!1s0x3442ab72a4d59f13:0x2d4277ad6aa283be!8m2!3d25.0123467!4d121.5420431!16s%2Fg%2F11tdfnhqrn!19sChIJE5_VpHKrQjQRvoOiaq13Qi0?authuser=0&hl=zh-TW&rclk=1", "keyword": "university", "category": "\u5927\u5b78", "lat": 25.0123467, "lon": 121.5420431}, {"name": "\u53f0\u7063\u79d1\u6280\u5927\u5b78 \u6d69\u63da\u5be6\u9a57\u5927\u6a13(\u5e06\u8239\u5927\u6a13)", "a": "https://www.google.com/maps/place/%E5%8F%B0%E7%81%A3%E7%A7%91%E6%8A%80%E5%A4%A7%E5%AD%B8+%E6%B5%A9%E6%8F%9A%E5%AF%A6%E9%A9%97%E5%A4%A7%E6%A8%93%28%E5%B8%86%E8%88%B9%E5%A4%A7%E6%A8%93%29/data=!4m7!3m6!1s0x3442aa2193722b9b:0x1c9db7497629b87d!8m2!3d25.01194!4d121.541707!16s%2Fg%2F11g9ds3s_t!19sChIJmytykyGqQjQRfbgpdkm3nRw?authuser=0&hl=zh-TW&rclk=1", "keyword": "university", "category": "\u5927\u5b78", "lat": 25.01194, "lon": 121.541707}]}